$GPGGA,222300.594,4024.845,N,11149.831,W,1,12,1.0,0.0,M,0.0,M,,*78
$GPGSA,A,3,01,02,03,04,05,06,07,08,09,10,11,12,1.0,1.0,1.0*30
$GPRMC,222300.594,A,4024.845,N,11149.831,W,226.0,000.0,281118,000.0,W*69
$GPGGA,222301.594,4024.908,N,11149.831,W,1,12,1.0,0.0,M,0.0,M,,*71
$GPGSA,A,3,01,02,03,04,05,06,07,08,09,10,11,12,1.0,1.0,1.0*30
$GPRMC,222301.594,A,4024.908,N,11149.831,W,240.1,000.0,281118,000.0,W*61
$GPGGA,222302.594,4024.974,N,11149.831,W,1,12,1.0,0.0,M,0.0,M,,*79
$GPGSA,A,3,01,02,03,04,05,06,07,08,09,10,11,12,1.0,1.0,1.0*30
$GPRMC,222302.594,A,4024.974,N,11149.831,W,254.6,355.8,281118,000.0,W*60
$GPGGA,222303.594,4025.045,N,11149.836,W,1,12,1.0,0.0,M,0.0,M,,*75
$GPGSA,A,3,01,02,03,04,05,06,07,08,09,10,11,12,1.0,1.0,1.0*30
$GPRMC,222303.594,A,4025.045,N,11149.836,W,254.2,000.0,281118,000.0,W*63
$GPGGA,222304.594,4025.116,N,11149.836,W,1,12,1.0,0.0,M,0.0,M,,*75
$GPGSA,A,3,01,02,03,04,05,06,07,08,09,10,11,12,1.0,1.0,1.0*30
$GPRMC,222304.594,A,4025.116,N,11149.836,W,240.1,000.0,281118,000.0,W*65
$GPGGA,222305.594,4025.182,N,11149.836,W,1,12,1.0,0.0,M,0.0,M,,*79
$GPGSA,A,3,01,02,03,04,05,06,07,08,09,10,11,12,1.0,1.0,1.0*30
$GPRMC,222305.594,A,4025.182,N,11149.836,W,268.4,000.0,281118,000.0,W*66
$GPGGA,222306.594,4025.257,N,11149.836,W,1,12,1.0,0.0,M,0.0,M,,*71
$GPGSA,A,3,01,02,03,04,05,06,07,08,09,10,11,12,1.0,1.0,1.0*30
$GPRMC,222306.594,A,4025.257,N,11149.836,W,240.5,004.4,281118,000.0,W*65
$GPGGA,222307.594,4025.323,N,11149.831,W,1,12,1.0,0.0,M,0.0,M,,*75
$GPGSA,A,3,01,02,03,04,05,06,07,08,09,10,11,12,1.0,1.0,1.0*30
$GPRMC,222307.594,A,4025.323,N,11149.831,W,240.5,355.6,281118,000.0,W*64
$GPGGA,222308.594,4025.390,N,11149.836,W,1,12,1.0,0.0,M,0.0,M,,*75
$GPGSA,A,3,01,02,03,04,05,06,07,08,09,10,11,12,1.0,1.0,1.0*30
$GPRMC,222308.594,A,4025.390,N,11149.836,W,254.6,004.2,281118,000.0,W*61
$GPGGA,222309.594,4025.461,N,11149.831,W,1,12,1.0,0.0,M,0.0,M,,*7A
$GPGSA,A,3,01,02,03,04,05,06,07,08,09,10,11,12,1.0,1.0,1.0*30
$GPRMC,222309.594,A,4025.461,N,11149.831,W,268.7,003.9,281118,000.0,W*6C
$GPGGA,222310.594,4025.535,N,11149.826,W,1,12,1.0,0.0,M,0.0,M,,*74
$GPGSA,A,3,01,02,03,04,05,06,07,08,09,10,11,12,1.0,1.0,1.0*30
$GPRMC,222310.594,A,4025.535,N,11149.826,W,268.3,000.0,281118,000.0,W*6C
$GPGGA,222311.594,4025.610,N,11149.826,W,1,12,1.0,0.0,M,0.0,M,,*71
$GPGSA,A,3,01,02,03,04,05,06,07,08,09,10,11,12,1.0,1.0,1.0*30
$GPRMC,222311.594,A,4025.610,N,11149.826,W,240.1,000.0,281118,000.0,W*61
$GPGGA,222312.594,4025.676,N,11149.826,W,1,12,1.0,0.0,M,0.0,M,,*72
$GPGSA,A,3,01,02,03,04,05,06,07,08,09,10,11,12,1.0,1.0,1.0*30
$GPRMC,222312.594,A,4025.676,N,11149.826,W,240.5,355.6,281118,000.0,W*63
$GPGGA,222313.594,4025.743,N,11149.831,W,1,12,1.0,0.0,M,0.0,M,,*72
$GPGSA,A,3,01,02,03,04,05,06,07,08,09,10,11,12,1.0,1.0,1.0*30
$GPRMC,222313.594,A,4025.743,N,11149.831,W,254.6,004.2,281118,000.0,W*66
$GPGGA,222314.594,4025.813,N,11149.826,W,1,12,1.0,0.0,M,0.0,M,,*79
$GPGSA,A,3,01,02,03,04,05,06,07,08,09,10,11,12,1.0,1.0,1.0*30
$GPRMC,222314.594,A,4025.813,N,11149.826,W,227.7,350.7,281118,000.0,W*6F
$GPGGA,222315.594,4025.876,N,11149.836,W,1,12,1.0,0.0,M,0.0,M,,*7A
$GPGSA,A,3,01,02,03,04,05,06,07,08,09,10,11,12,1.0,1.0,1.0*30
$GPRMC,222315.594,A,4025.876,N,11149.836,W,197.7,000.0,281118,000.0,W*65
$GPGGA,222316.594,4025.931,N,11149.836,W,1,12,1.0,0.0,M,0.0,M,,*7B
$GPGSA,A,3,01,02,03,04,05,06,07,08,09,10,11,12,1.0,1.0,1.0*30
$GPRMC,222316.594,A,4025.931,N,11149.836,W,338.9,090.0,281118,000.0,W*64
$GPGGA,222317.594,4025.931,N,11149.713,W,1,12,1.0,0.0,M,0.0,M,,*72
$GPGSA,A,3,01,02,03,04,05,06,07,08,09,10,11,12,1.0,1.0,1.0*30
$GPRMC,222317.594,A,4025.931,N,11149.713,W,326.0,093.8,281118,000.0,W*60
$GPGGA,222318.594,4025.923,N,11149.594,W,1,12,1.0,0.0,M,0.0,M,,*73
$GPGSA,A,3,01,02,03,04,05,06,07,08,09,10,11,12,1.0,1.0,1.0*30
$GPRMC,222318.594,A,4025.923,N,11149.594,W,341.5,095.4,281118,000.0,W*6F
$GPGGA,222319.594,4025.911,N,11149.471,W,1,12,1.0,0.0,M,0.0,M,,*79
$GPGSA,A,3,01,02,03,04,05,06,07,08,09,10,11,12,1.0,1.0,1.0*30
$GPRMC,222319.594,A,4025.911,N,11149.471,W,325.1,091.9,281118,000.0,W*6A
$GPGGA,222320.594,4025.907,N,11149.352,W,1,12,1.0,0.0,M,0.0,M,,*72
$GPGSA,A,3,01,02,03,04,05,06,07,08,09,10,11,12,1.0,1.0,1.0*30
$GPRMC,222320.594,A,4025.907,N,11149.352,W,297.9,094.2,281118,000.0,W*6F
$GPGGA,222321.594,4025.900,N,11149.244,W,1,12,1.0,0.0,M,0.0,M,,*72
$GPGSA,A,3,01,02,03,04,05,06,07,08,09,10,11,12,1.0,1.0,1.0*30
$GPRMC,222321.594,A,4025.900,N,11149.244,W,297.9,085.8,281118,000.0,W*65
$GPGGA,222322.594,4025.907,N,11149.136,W,1,12,1.0,0.0,M,0.0,M,,*70
$GPGSA,A,3,01,02,03,04,05,06,07,08,09,10,11,12,1.0,1.0,1.0*30
$GPRMC,222322.594,A,4025.907,N,11149.136,W,311.0,088.0,281118,000.0,W*64
$GPGGA,222323.594,4025.911,N,11149.023,W,1,12,1.0,0.0,M,0.0,M,,*73
$GPGSA,A,3,01,02,03,04,05,06,07,08,09,10,11,12,1.0,1.0,1.0*30
$GPRMC,222323.594,A,4025.911,N,11149.023,W,311.0,092.0,281118,000.0,W*6C
$GPGGA,222324.594,4025.907,N,11148.909,W,1,12,1.0,0.0,M,0.0,M,,*73
$GPGSA,A,3,01,02,03,04,05,06,07,08,09,10,11,12,1.0,1.0,1.0*30
$GPRMC,222324.594,A,4025.907,N,11148.909,W,324.8,090.0,281118,000.0,W*60
$GPGGA,222325.594,4025.907,N,11148.791,W,1,12,1.0,0.0,M,0.0,M,,*7D
$GPGSA,A,3,01,02,03,04,05,06,07,08,09,10,11,12,1.0,1.0,1.0*30
$GPRMC,222325.594,A,4025.907,N,11148.791,W,297.9,085.8,281118,000.0,W*6A
$GPGGA,222326.594,4025.915,N,11148.683,W,1,12,1.0,0.0,M,0.0,M,,*7F
$GPGSA,A,3,01,02,03,04,05,06,07,08,09,10,11,12,1.0,1.0,1.0*30
$GPRMC,222326.594,A,4025.915,N,11148.683,W,326.0,093.8,281118,000.0,W*6D
$GPGGA,222327.594,4025.907,N,11148.564,W,1,12,1.0,0.0,M,0.0,M,,*77
$GPGSA,A,3,01,02,03,04,05,06,07,08,09,10,11,12,1.0,1.0,1.0*30
$GPRMC,222327.594,A,4025.907,N,11148.564,W,296.5,090.0,281118,000.0,W*61
$GPGGA,222328.594,4025.907,N,11148.456,W,1,12,1.0,0.0,M,0.0,M,,*78
$GPGSA,A,3,01,02,03,04,05,06,07,08,09,10,11,12,1.0,1.0,1.0*30
$GPRMC,222328.594,A,4025.907,N,11148.456,W,296.5,090.0,281118,000.0,W*6E
$GPGGA,222329.594,4025.907,N,11148.348,W,1,12,1.0,0.0,M,0.0,M,,*71
$GPGSA,A,3,01,02,03,04,05,06,07,08,09,10,11,12,1.0,1.0,1.0*30
$GPRMC,222329.594,A,4025.907,N,11148.348,W,282.8,087.8,281118,000.0,W*61
$GPGGA,222330.594,4025.911,N,11148.245,W,1,12,1.0,0.0,M,0.0,M,,*72
$GPGSA,A,3,01,02,03,04,05,06,07,08,09,10,11,12,1.0,1.0,1.0*30
$GPRMC,222330.594,A,4025.911,N,11148.245,W,241.7,084.9,281118,000.0,W*60
$GPGGA,222331.594,4025.919,N,11148.158,W,1,12,1.0,0.0,M,0.0,M,,*74
$GPGSA,A,3,01,02,03,04,05,06,07,08,09,10,11,12,1.0,1.0,1.0*30
$GPRMC,222331.594,A,4025.919,N,11148.158,W,259.6,151.6,281118,000.0,W*68
$GPGGA,222332.594,4025.853,N,11148.121,W,1,12,1.0,0.0,M,0.0,M,,*76
$GPGSA,A,3,01,02,03,04,05,06,07,08,09,10,11,12,1.0,1.0,1.0*30
$GPRMC,222332.594,A,4025.853,N,11148.121,W,268.7,183.9,281118,000.0,W*69
$GPGGA,222333.594,4025.778,N,11148.127,W,1,12,1.0,0.0,M,0.0,M,,*77
$GPGSA,A,3,01,02,03,04,05,06,07,08,09,10,11,12,1.0,1.0,1.0*30
$GPRMC,222333.594,A,4025.778,N,11148.127,W,269.8,172.1,281118,000.0,W*60
$GPGGA,222334.594,4025.704,N,11148.116,W,1,12,1.0,0.0,M,0.0,M,,*79
$GPGSA,A,3,01,02,03,04,05,06,07,08,09,10,11,12,1.0,1.0,1.0*30
$GPRMC,222334.594,A,4025.704,N,11148.116,W,310.7,180.0,281118,000.0,W*62
$GPGGA,222335.594,4025.617,N,11148.116,W,1,12,1.0,0.0,M,0.0,M,,*7B
$GPGSA,A,3,01,02,03,04,05,06,07,08,09,10,11,12,1.0,1.0,1.0*30
$GPRMC,222335.594,A,4025.617,N,11148.116,W,340.1,186.2,281118,000.0,W*67
$GPGGA,222336.594,4025.523,N,11148.127,W,1,12,1.0,0.0,M,0.0,M,,*7E
$GPGSA,A,3,01,02,03,04,05,06,07,08,09,10,11,12,1.0,1.0,1.0*30
$GPRMC,222336.594,A,4025.523,N,11148.127,W,268.7,176.1,281118,000.0,W*63
$GPGGA,222337.594,4025.449,N,11148.121,W,1,12,1.0,0.0,M,0.0,M,,*74
$GPGSA,A,3,01,02,03,04,05,06,07,08,09,10,11,12,1.0,1.0,1.0*30
$GPRMC,222337.594,A,4025.449,N,11148.121,W,311.0,176.6,281118,000.0,W*66
$GPGGA,222338.594,4025.363,N,11148.116,W,1,12,1.0,0.0,M,0.0,M,,*70
$GPGSA,A,3,01,02,03,04,05,06,07,08,09,10,11,12,1.0,1.0,1.0*30
$GPRMC,222338.594,A,4025.363,N,11148.116,W,240.5,184.4,281118,000.0,W*6D
$GPGGA,222339.594,4025.296,N,11148.121,W,1,12,1.0,0.0,M,0.0,M,,*7E
$GPGSA,A,3,01,02,03,04,05,06,07,08,09,10,11,12,1.0,1.0,1.0*30
$GPRMC,222339.594,A,4025.296,N,11148.121,W,127.9,188.3,281118,000.0,W*66
$GPGGA,222340.594,4025.261,N,11148.127,W,1,12,1.0,0.0,M,0.0,M,,*7E
$GPGSA,A,3,01,02,03,04,05,06,07,08,09,10,11,12,1.0,1.0,1.0*30
$GPRMC,222340.594,A,4025.261,N,11148.127,W,240.1,270.0,281118,000.0,W*6B
$GPGGA,222341.594,4025.261,N,11148.214,W,1,12,1.0,0.0,M,0.0,M,,*7C
$GPGSA,A,3,01,02,03,04,05,06,07,08,09,10,11,12,1.0,1.0,1.0*30
$GPRMC,222341.594,A,4025.261,N,11148.214,W,282.8,272.2,281118,000.0,W*6E
$GPGGA,222342.594,4025.265,N,11148.317,W,1,12,1.0,0.0,M,0.0,M,,*79
$GPGSA,A,3,01,02,03,04,05,06,07,08,09,10,11,12,1.0,1.0,1.0*30
$GPRMC,222342.594,A,4025.265,N,11148.317,W,296.9,267.9,281118,000.0,W*60
$GPGGA,222343.594,4025.261,N,11148.425,W,1,12,1.0,0.0,M,0.0,M,,*7A
$GPGSA,A,3,01,02,03,04,05,06,07,08,09,10,11,12,1.0,1.0,1.0*30
$GPRMC,222343.594,A,4025.261,N,11148.425,W,296.6,270.0,281118,000.0,W*63
$GPGGA,222344.594,4025.261,N,11148.533,W,1,12,1.0,0.0,M,0.0,M,,*7B
$GPGSA,A,3,01,02,03,04,05,06,07,08,09,10,11,12,1.0,1.0,1.0*30
$GPRMC,222344.594,A,4025.261,N,11148.533,W,326.1,266.2,281118,000.0,W*6A
$GPGGA,222345.594,4025.253,N,11148.652,W,1,12,1.0,0.0,M,0.0,M,,*7F
$GPGSA,A,3,01,02,03,04,05,06,07,08,09,10,11,12,1.0,1.0,1.0*30
$GPRMC,222345.594,A,4025.253,N,11148.652,W,326.1,266.2,281118,000.0,W*6E
